{
    "Wind_at_Carson": {
    "state": "WA",
    "latitude": 45.72657,
    "longitude": -121.79428,
    "gages": [
      {
        "name": "Carson",
        "state": "WA",
        "latitude": 45.72657,
        "longitude": -121.79428,
        "service": "USGS",
        "site_id": "14128500",
        "type": "FLOW"
      },
      {
        "name": "Stabler",
        "state": "WA",
        "latitude": 45.72657,
        "longitude": -121.79428,
        "service": "WA_Ecology",
        "site_id": "29C100",
        "type": "FLOW"
      }
    ],
    "subbasins": {
      "Trout": {
        "state": "WA",
        "latitude": 45.79853,
        "longitude": -121.90676,
        "gages": []
      },
      "Panther": {
        "state": "WA",
        "latitude": 45.76140,
        "longitude": -121.83134,
        "gages": []
      }
    }
  },
    "Shoug_at_Hathaway": {
    "state": "WA",
    "latitude": 45.58463,
    "longitude": -122.34090,
    "gages": [
      {
        "name": "Washougal",
        "state": "WA",
        "latitude": 45.58463,
        "longitude": -122.34090,
        "service": "USGS",
        "site_id": "14143500",
        "type": "FLOW"
      },
      {
        "name": "Hathaway",
        "state": "WA",
        "latitude": 45.58463,
        "longitude": -122.34090,
        "service": "WA_Ecology",
        "site_id": "28B080",
        "type": "FLOW"
      }
    ],
    "subbasins": {
      "Hagen": {
        "state": "WA",
        "latitude": 45.68464,
        "longitude": -122.24344,
        "gages": []
      },
      "WF_Shoug": {
        "state": "WA",
        "latitude": 45.61335,
        "longitude": -122.21936,
        "gages": []
      },
      "Stebbins": {
        "state": "WA",
        "latitude": 45.69113,
        "longitude": -122.12143,
        "gages": []
      }
    }
  },

  "Canyon_Creek_WA": {
    "state": "WA",
    "latitude": 45.9404,
    "longitude": -122.3226,
    "gages": [
      {
        "name": "Amboy",
        "state": "WA",
        "latitude": 45.9404,
        "longitude": -122.3226,
        "service": "USGS",
        "site_id": "14219000",
        "type": "FLOW"
      }
    ]
  },
  "Ldub_at_Hatchery": {
    "state": "WA",
    "latitude": 45.7672,
    "longitude": -121.6300,
    "gages": []
  },

  "WS_at_Husum": {
    "state": "WA",
    "latitude": 45.7978,
    "longitude": -121.4862,
    "gages": [
      {
        "name": "Underwood",
        "state": "WA",
        "latitude": 45.7978,
        "longitude": -121.4862,
        "service": "USGS",
        "site_id": "14123500",
        "type": "FLOW"
      }
    ]
  }


}
